[
    {
        "districts": [
            {
                "zip": "100",
                "name": "中正區",
                "latitude": 25.03240487,
                "longitude": 121.5198839
            },
            {
                "zip": "103",
                "name": "大同區",
                "latitude": 25.06342433,
                "longitude": 121.5130417
            },
            {
                "zip": "104",
                "name": "中山區",
                "latitude": 25.06969917,
                "longitude": 121.5381597
            },
            {
                "zip": "105",
                "name": "松山區",
                "latitude": 25.05999101,
                "longitude": 121.5575876
            },
            {
                "zip": "106",
                "name": "大安區",
                "latitude": 25.02677012,
                "longitude": 121.5434446
            },
            {
                "zip": "108",
                "name": "萬華區",
                "latitude": 25.0285899,
                "longitude": 121.4979858
            },
            {
                "zip": "110",
                "name": "信義區",
                "latitude": 25.03062083,
                "longitude": 121.5716697
            },
            {
                "zip": "111",
                "name": "士林區",
                "latitude": 25.12546704,
                "longitude": 121.5508473
            },
            {
                "zip": "112",
                "name": "北投區",
                "latitude": 25.1480682,
                "longitude": 121.5177992
            },
            {
                "zip": "114",
                "name": "內湖區",
                "latitude": 25.08370623,
                "longitude": 121.5923828
            },
            {
                "zip": "115",
                "name": "南港區",
                "latitude": 25.03600934,
                "longitude": 121.6097573
            },
            {
                "zip": "116",
                "name": "文山區",
                "latitude": 24.98857934,
                "longitude": 121.5736082
            }
        ],
        "name": "台北市"
    },
    {
        "districts": [
            {
                "zip": "200",
                "name": "仁愛區",
                "latitude": 25.11945421,
                "longitude": 121.7434205
            },
            {
                "zip": "201",
                "name": "信義區",
                "latitude": 25.12576579,
                "longitude": 121.772646
            },
            {
                "zip": "202",
                "name": "中正區",
                "latitude": 25.14365754,
                "longitude": 121.7783549
            },
            {
                "zip": "203",
                "name": "中山區",
                "latitude": 25.14986365,
                "longitude": 121.7308913
            },
            {
                "zip": "204",
                "name": "安樂區",
                "latitude": 25.14139521,
                "longitude": 121.7078325
            },
            {
                "zip": "205",
                "name": "暖暖區",
                "latitude": 25.08097003,
                "longitude": 121.7447344
            },
            {
                "zip": "206",
                "name": "七堵區",
                "latitude": 25.10962028,
                "longitude": 121.683628
            }
        ],
        "name": "基隆市"
    },
    {
        "districts": [
            {
                "zip": "207",
                "name": "萬里區",
                "latitude": 25.17572457,
                "longitude": 121.6439307
            },
            {
                "zip": "208",
                "name": "金山區",
                "latitude": 25.21714594,
                "longitude": 121.6052639
            },
            {
                "zip": "220",
                "name": "板橋區",
                "latitude": 25.01186453,
                "longitude": 121.4579675
            },
            {
                "zip": "221",
                "name": "汐止區",
                "latitude": 25.07331322,
                "longitude": 121.6546992
            },
            {
                "zip": "222",
                "name": "深坑區",
                "latitude": 24.99767506,
                "longitude": 121.6200624
            },
            {
                "zip": "223",
                "name": "石碇區",
                "latitude": 24.94714107,
                "longitude": 121.6472277
            },
            {
                "zip": "224",
                "name": "瑞芳區",
                "latitude": 25.0981293,
                "longitude": 121.8232018
            },
            {
                "zip": "226",
                "name": "平溪區",
                "latitude": 25.02607068,
                "longitude": 121.7578817
            },
            {
                "zip": "227",
                "name": "雙溪區",
                "latitude": 24.99698394,
                "longitude": 121.8329822
            },
            {
                "zip": "228",
                "name": "貢寮區",
                "latitude": 25.02485641,
                "longitude": 121.9182466
            },
            {
                "zip": "231",
                "name": "新店區",
                "latitude": 24.93039008,
                "longitude": 121.5316565
            },
            {
                "zip": "232",
                "name": "坪林區",
                "latitude": 24.91097073,
                "longitude": 121.724223
            },
            {
                "zip": "233",
                "name": "烏來區",
                "latitude": 24.78824295,
                "longitude": 121.5414806
            },
            {
                "zip": "234",
                "name": "永和區",
                "latitude": 25.00810199,
                "longitude": 121.516745
            },
            {
                "zip": "235",
                "name": "中和區",
                "latitude": 24.99088039,
                "longitude": 121.4936744
            },
            {
                "zip": "236",
                "name": "土城區",
                "latitude": 24.96425102,
                "longitude": 121.445737
            },
            {
                "zip": "237",
                "name": "三峽區",
                "latitude": 24.88209766,
                "longitude": 121.4163094
            },
            {
                "zip": "238",
                "name": "樹林區",
                "latitude": 24.97970609,
                "longitude": 121.401034
            },
            {
                "zip": "239",
                "name": "鶯歌區",
                "latitude": 24.9566258,
                "longitude": 121.3466269
            },
            {
                "zip": "241",
                "name": "三重區",
                "latitude": 25.06281651,
                "longitude": 121.4870977
            },
            {
                "zip": "242",
                "name": "新莊區",
                "latitude": 25.0358303,
                "longitude": 121.4367535
            },
            {
                "zip": "243",
                "name": "泰山區",
                "latitude": 25.05549774,
                "longitude": 121.4162785
            },
            {
                "zip": "244",
                "name": "林口區",
                "latitude": 25.1000868,
                "longitude": 121.3527235
            },
            {
                "zip": "247",
                "name": "蘆洲區",
                "latitude": 25.08927173,
                "longitude": 121.4712461
            },
            {
                "zip": "248",
                "name": "五股區",
                "latitude": 25.09614746,
                "longitude": 121.4332139
            },
            {
                "zip": "249",
                "name": "八里區",
                "latitude": 25.13812763,
                "longitude": 121.4138359
            },
            {
                "zip": "251",
                "name": "淡水區",
                "latitude": 25.18907636,
                "longitude": 121.463904
            },
            {
                "zip": "252",
                "name": "三芝區",
                "latitude": 25.23159891,
                "longitude": 121.515558
            },
            {
                "zip": "253",
                "name": "石門區",
                "latitude": 25.26518079,
                "longitude": 121.5692761
            }
        ],
        "name": "新北市"
    },
    {
        "districts": [
            {
                "zip": "209",
                "name": "南竿鄉",
                "latitude": 26.154321,
                "longitude": 119.931128
            },
            {
                "zip": "210",
                "name": "北竿鄉",
                "latitude": 26.225637,
                "longitude": 119.994251
            },
            {
                "zip": "211",
                "name": "莒光鄉",
                "latitude": 25.97298,
                "longitude": 119.938877
            },
            {
                "zip": "212",
                "name": "東引鄉",
                "latitude": 26.366101,
                "longitude": 120.4903
            }
        ],
        "name": "連江縣"
    },
    {
        "districts": [
            {
                "zip": "260",
                "name": "宜蘭市",
                "latitude": 24.75021184,
                "longitude": 121.7569358
            },
            {
                "zip": "263",
                "name": "壯圍鄉",
                "latitude": 24.75183042,
                "longitude": 121.8017622
            },
            {
                "zip": "261",
                "name": "頭城鎮",
                "latitude": 24.90075882,
                "longitude": 121.845797
            },
            {
                "zip": "262",
                "name": "礁溪鄉",
                "latitude": 24.81144192,
                "longitude": 121.7346606
            },
            {
                "zip": "264",
                "name": "員山鄉",
                "latitude": 24.74199237,
                "longitude": 121.6612282
            },
            {
                "zip": "265",
                "name": "羅東鎮",
                "latitude": 24.67884824,
                "longitude": 121.7701782
            },
            {
                "zip": "266",
                "name": "三星鄉",
                "latitude": 24.66771972,
                "longitude": 121.6642714
            },
            {
                "zip": "267",
                "name": "大同鄉",
                "latitude": 24.55152082,
                "longitude": 121.5040369
            },
            {
                "zip": "268",
                "name": "五結鄉",
                "latitude": 24.68887343,
                "longitude": 121.8058342
            },
            {
                "zip": "269",
                "name": "冬山鄉",
                "latitude": 24.64214986,
                "longitude": 121.760255
            },
            {
                "zip": "270",
                "name": "蘇澳鎮",
                "latitude": 24.55467058,
                "longitude": 121.8346892
            },
            {
                "zip": "272",
                "name": "南澳鄉",
                "latitude": 24.44864058,
                "longitude": 121.6560593
            },
            {
                "zip": "290",
                "name": "釣魚臺",
                "latitude": 25.746396,
                "longitude": 123.475482
            }
        ],
        "name": "宜蘭縣"
    },
    {
        "districts": [
            {
                "zip": "290",
                "name": "釣魚臺",
                "latitude": 25.746396,
                "longitude": 123.475482
            }
        ],
        "name": "釣魚臺"
    },
    {
        "districts": [
            {
                "zip": "300",
                "name": "東區",
                "latitude": 24.77104342,
                "longitude": 120.9236727
            },
            {
                "zip": "300",
                "name": "北區",
                "latitude": 24.77104342,
                "longitude": 120.9236727
            },
            {
                "zip": "300",
                "name": "香山區",
                "latitude": 24.77104342,
                "longitude": 120.9236727
            }
        ],
        "name": "新竹市"
    },
    {
        "districts": [
            {
                "zip": "308",
                "name": "寶山鄉",
                "latitude": 24.73697351,
                "longitude": 120.9991605
            },
            {
                "zip": "302",
                "name": "竹北市",
                "latitude": 24.83816209,
                "longitude": 120.9948704
            },
            {
                "zip": "303",
                "name": "湖口鄉",
                "latitude": 24.88566341,
                "longitude": 121.0517242
            },
            {
                "zip": "304",
                "name": "新豐鄉",
                "latitude": 24.90731298,
                "longitude": 120.9956033
            },
            {
                "zip": "305",
                "name": "新埔鎮",
                "latitude": 24.84133959,
                "longitude": 121.0939886
            },
            {
                "zip": "306",
                "name": "關西鎮",
                "latitude": 24.78514681,
                "longitude": 121.1866221
            },
            {
                "zip": "307",
                "name": "芎林鄉",
                "latitude": 24.7657116,
                "longitude": 121.1046394
            },
            {
                "zip": "310",
                "name": "竹東鎮",
                "latitude": 24.73075802,
                "longitude": 121.0753632
            },
            {
                "zip": "311",
                "name": "五峰鄉",
                "latitude": 24.578054,
                "longitude": 121.1389495
            },
            {
                "zip": "312",
                "name": "橫山鄉",
                "latitude": 24.7078092,
                "longitude": 121.1469732
            },
            {
                "zip": "313",
                "name": "尖石鄉",
                "latitude": 24.59493235,
                "longitude": 121.2819341
            },
            {
                "zip": "314",
                "name": "北埔鄉",
                "latitude": 24.67207405,
                "longitude": 121.0642745
            },
            {
                "zip": "315",
                "name": "峨眉鄉",
                "latitude": 24.67811197,
                "longitude": 121.0110809
            }
        ],
        "name": "新竹縣"
    },
    {
        "districts": [
            {
                "zip": "320",
                "name": "中壢區",
                "latitude": 24.97993803,
                "longitude": 121.2147243
            },
            {
                "zip": "324",
                "name": "平鎮區",
                "latitude": 24.92117923,
                "longitude": 121.2140051
            },
            {
                "zip": "325",
                "name": "龍潭區",
                "latitude": 24.85064954,
                "longitude": 121.2117877
            },
            {
                "zip": "326",
                "name": "楊梅區",
                "latitude": 24.91820989,
                "longitude": 121.1291697
            },
            {
                "zip": "327",
                "name": "新屋區",
                "latitude": 24.97280352,
                "longitude": 121.067758
            },
            {
                "zip": "328",
                "name": "觀音區",
                "latitude": 25.02671611,
                "longitude": 121.1155021
            },
            {
                "zip": "330",
                "name": "桃園區",
                "latitude": 25.00040024,
                "longitude": 121.2996612
            },
            {
                "zip": "333",
                "name": "龜山區",
                "latitude": 25.02417472,
                "longitude": 121.3569265
            },
            {
                "zip": "334",
                "name": "八德區",
                "latitude": 24.94968903,
                "longitude": 121.2913102
            },
            {
                "zip": "335",
                "name": "大溪區",
                "latitude": 24.86797026,
                "longitude": 121.296342
            },
            {
                "zip": "336",
                "name": "復興區",
                "latitude": 24.72949884,
                "longitude": 121.3754588
            },
            {
                "zip": "337",
                "name": "大園區",
                "latitude": 25.06384709,
                "longitude": 121.21177
            },
            {
                "zip": "338",
                "name": "蘆竹區",
                "latitude": 25.06073337,
                "longitude": 121.2831266
            }
        ],
        "name": "桃園市"
    },
    {
        "districts": [
            {
                "zip": "350",
                "name": "竹南鎮",
                "latitude": 24.69862459,
                "longitude": 120.8777316
            },
            {
                "zip": "351",
                "name": "頭份市",
                "latitude": 24.67628243,
                "longitude": 120.9189437
            },
            {
                "zip": "352",
                "name": "三灣鄉",
                "latitude": 24.63599405,
                "longitude": 120.9525745
            },
            {
                "zip": "353",
                "name": "南庄鄉",
                "latitude": 24.56608432,
                "longitude": 121.017471
            },
            {
                "zip": "354",
                "name": "獅潭鄉",
                "latitude": 24.51978614,
                "longitude": 120.9206688
            },
            {
                "zip": "356",
                "name": "後龍鎮",
                "latitude": 24.6156265,
                "longitude": 120.781205
            },
            {
                "zip": "357",
                "name": "通霄鎮",
                "latitude": 24.4850464,
                "longitude": 120.7146378
            },
            {
                "zip": "358",
                "name": "苑裡鎮",
                "latitude": 24.4110232,
                "longitude": 120.6882195
            },
            {
                "zip": "360",
                "name": "苗栗市",
                "latitude": 24.56382141,
                "longitude": 120.8112299
            },
            {
                "zip": "361",
                "name": "造橋鄉",
                "latitude": 24.62481314,
                "longitude": 120.8695663
            },
            {
                "zip": "362",
                "name": "頭屋鄉",
                "latitude": 24.57345497,
                "longitude": 120.8826631
            },
            {
                "zip": "363",
                "name": "公館鄉",
                "latitude": 24.50249686,
                "longitude": 120.8505904
            },
            {
                "zip": "364",
                "name": "大湖鄉",
                "latitude": 24.39359641,
                "longitude": 120.8631192
            },
            {
                "zip": "365",
                "name": "泰安鄉",
                "latitude": 24.41925819,
                "longitude": 121.0681571
            },
            {
                "zip": "366",
                "name": "銅鑼鄉",
                "latitude": 24.45591832,
                "longitude": 120.7992043
            },
            {
                "zip": "367",
                "name": "三義鄉",
                "latitude": 24.38081659,
                "longitude": 120.7701929
            },
            {
                "zip": "368",
                "name": "西湖鄉",
                "latitude": 24.54153218,
                "longitude": 120.7614144
            },
            {
                "zip": "369",
                "name": "卓蘭鎮",
                "latitude": 24.32510167,
                "longitude": 120.8561966
            }
        ],
        "name": "苗栗縣"
    },
    {
        "districts": [
            {
                "zip": "400",
                "name": "中區",
                "latitude": 24.14168566,
                "longitude": 120.680598
            },
            {
                "zip": "401",
                "name": "東區",
                "latitude": 24.13733209,
                "longitude": 120.6970865
            },
            {
                "zip": "402",
                "name": "南區",
                "latitude": 24.12114107,
                "longitude": 120.6646178
            },
            {
                "zip": "403",
                "name": "西區",
                "latitude": 24.14391082,
                "longitude": 120.6647579
            },
            {
                "zip": "404",
                "name": "北區",
                "latitude": 24.15863985,
                "longitude": 120.6809521
            },
            {
                "zip": "406",
                "name": "北屯區",
                "latitude": 24.18400298,
                "longitude": 120.7362319
            },
            {
                "zip": "407",
                "name": "西屯區",
                "latitude": 24.18308895,
                "longitude": 120.6270131
            },
            {
                "zip": "408",
                "name": "南屯區",
                "latitude": 24.14165524,
                "longitude": 120.6177379
            },
            {
                "zip": "411",
                "name": "太平區",
                "latitude": 24.11477375,
                "longitude": 120.7734217
            },
            {
                "zip": "412",
                "name": "大里區",
                "latitude": 24.09575742,
                "longitude": 120.6926261
            },
            {
                "zip": "413",
                "name": "霧峰區",
                "latitude": 24.04332785,
                "longitude": 120.7201989
            },
            {
                "zip": "414",
                "name": "烏日區",
                "latitude": 24.0839271,
                "longitude": 120.6293305
            },
            {
                "zip": "420",
                "name": "豐原區",
                "latitude": 24.24990298,
                "longitude": 120.7375715
            },
            {
                "zip": "421",
                "name": "后里區",
                "latitude": 24.30962483,
                "longitude": 120.7146127
            },
            {
                "zip": "422",
                "name": "石岡區",
                "latitude": 24.26493299,
                "longitude": 120.7903822
            },
            {
                "zip": "423",
                "name": "東勢區",
                "latitude": 24.24952637,
                "longitude": 120.8401401
            },
            {
                "zip": "424",
                "name": "和平區",
                "latitude": 24.27620277,
                "longitude": 121.140185
            },
            {
                "zip": "426",
                "name": "新社區",
                "latitude": 24.17769289,
                "longitude": 120.8313228
            },
            {
                "zip": "427",
                "name": "潭子區",
                "latitude": 24.21171121,
                "longitude": 120.710997
            },
            {
                "zip": "428",
                "name": "大雅區",
                "latitude": 24.22704181,
                "longitude": 120.6411818
            },
            {
                "zip": "429",
                "name": "神岡區",
                "latitude": 24.26568008,
                "longitude": 120.6733321
            },
            {
                "zip": "432",
                "name": "大肚區",
                "latitude": 24.14467504,
                "longitude": 120.5543243
            },
            {
                "zip": "433",
                "name": "沙鹿區",
                "latitude": 24.23425212,
                "longitude": 120.5838628
            },
            {
                "zip": "434",
                "name": "龍井區",
                "latitude": 24.20062892,
                "longitude": 120.5283728
            },
            {
                "zip": "435",
                "name": "梧棲區",
                "latitude": 24.24552431,
                "longitude": 120.5301259
            },
            {
                "zip": "436",
                "name": "清水區",
                "latitude": 24.29205743,
                "longitude": 120.5809094
            },
            {
                "zip": "437",
                "name": "大甲區",
                "latitude": 24.37827161,
                "longitude": 120.6357901
            },
            {
                "zip": "438",
                "name": "外埔區",
                "latitude": 24.33551071,
                "longitude": 120.6650639
            },
            {
                "zip": "439",
                "name": "大安區",
                "latitude": 24.36509555,
                "longitude": 120.5914407
            }
        ],
        "name": "台中市"
    },
    {
        "districts": [
            {
                "zip": "500",
                "name": "彰化市",
                "latitude": 24.07532909,
                "longitude": 120.5694208
            },
            {
                "zip": "502",
                "name": "芬園鄉",
                "latitude": 24.00628794,
                "longitude": 120.6294414
            },
            {
                "zip": "503",
                "name": "花壇鄉",
                "latitude": 24.03006875,
                "longitude": 120.5597655
            },
            {
                "zip": "504",
                "name": "秀水鄉",
                "latitude": 24.03249405,
                "longitude": 120.5041184
            },
            {
                "zip": "505",
                "name": "鹿港鎮",
                "latitude": 24.08286685,
                "longitude": 120.4385491
            },
            {
                "zip": "506",
                "name": "福興鄉",
                "latitude": 24.03021674,
                "longitude": 120.4310511
            },
            {
                "zip": "507",
                "name": "線西鄉",
                "latitude": 24.13158127,
                "longitude": 120.452157
            },
            {
                "zip": "508",
                "name": "和美鎮",
                "latitude": 24.11379535,
                "longitude": 120.5112045
            },
            {
                "zip": "509",
                "name": "伸港鄉",
                "latitude": 24.16367107,
                "longitude": 120.486449
            },
            {
                "zip": "510",
                "name": "員林市",
                "latitude": 23.95650448,
                "longitude": 120.593073
            },
            {
                "zip": "511",
                "name": "社頭鄉",
                "latitude": 23.90536413,
                "longitude": 120.6021661
            },
            {
                "zip": "512",
                "name": "永靖鄉",
                "latitude": 23.92139507,
                "longitude": 120.5416032
            },
            {
                "zip": "513",
                "name": "埔心鄉",
                "latitude": 23.95277521,
                "longitude": 120.5342802
            },
            {
                "zip": "514",
                "name": "溪湖鎮",
                "latitude": 23.95171456,
                "longitude": 120.4831739
            },
            {
                "zip": "515",
                "name": "大村鄉",
                "latitude": 23.99209206,
                "longitude": 120.5586866
            },
            {
                "zip": "516",
                "name": "埔鹽鄉",
                "latitude": 23.99204417,
                "longitude": 120.4594626
            },
            {
                "zip": "520",
                "name": "田中鎮",
                "latitude": 23.85723872,
                "longitude": 120.5903471
            },
            {
                "zip": "521",
                "name": "北斗鎮",
                "latitude": 23.867574,
                "longitude": 120.5331566
            },
            {
                "zip": "522",
                "name": "田尾鄉",
                "latitude": 23.90056065,
                "longitude": 120.5223244
            },
            {
                "zip": "523",
                "name": "埤頭鄉",
                "latitude": 23.88234118,
                "longitude": 120.4675642
            },
            {
                "zip": "524",
                "name": "溪州鄉",
                "latitude": 23.82725185,
                "longitude": 120.5224904
            },
            {
                "zip": "525",
                "name": "竹塘鄉",
                "latitude": 23.8505872,
                "longitude": 120.4136645
            },
            {
                "zip": "526",
                "name": "二林鎮",
                "latitude": 23.91621405,
                "longitude": 120.404225
            },
            {
                "zip": "527",
                "name": "大城鄉",
                "latitude": 23.85069276,
                "longitude": 120.3113284
            },
            {
                "zip": "528",
                "name": "芳苑鄉",
                "latitude": 23.9537906,
                "longitude": 120.3539226
            },
            {
                "zip": "530",
                "name": "二水鄉",
                "latitude": 23.8092402,
                "longitude": 120.628589
            }
        ],
        "name": "彰化縣"
    },
    {
        "districts": [
            {
                "zip": "540",
                "name": "南投市",
                "latitude": 23.92173537,
                "longitude": 120.6787658
            },
            {
                "zip": "541",
                "name": "中寮鄉",
                "latitude": 23.90589214,
                "longitude": 120.7859159
            },
            {
                "zip": "542",
                "name": "草屯鎮",
                "latitude": 23.98321081,
                "longitude": 120.7326182
            },
            {
                "zip": "544",
                "name": "國姓鄉",
                "latitude": 24.03135413,
                "longitude": 120.8676052
            },
            {
                "zip": "545",
                "name": "埔里鎮",
                "latitude": 23.97892591,
                "longitude": 120.9625259
            },
            {
                "zip": "546",
                "name": "仁愛鄉",
                "latitude": 24.02886513,
                "longitude": 121.1443879
            },
            {
                "zip": "551",
                "name": "名間鄉",
                "latitude": 23.8510771,
                "longitude": 120.6774402
            },
            {
                "zip": "552",
                "name": "集集鎮",
                "latitude": 23.83701687,
                "longitude": 120.7854192
            },
            {
                "zip": "553",
                "name": "水里鄉",
                "latitude": 23.79612907,
                "longitude": 120.8622721
            },
            {
                "zip": "555",
                "name": "魚池鄉",
                "latitude": 23.87601213,
                "longitude": 120.9256736
            },
            {
                "zip": "556",
                "name": "信義鄉",
                "latitude": 23.6554647,
                "longitude": 121.0212867
            },
            {
                "zip": "557",
                "name": "竹山鎮",
                "latitude": 23.69805518,
                "longitude": 120.7100797
            },
            {
                "zip": "558",
                "name": "鹿谷鄉",
                "latitude": 23.73776029,
                "longitude": 120.7815065
            }
        ],
        "name": "南投縣"
    },
    {
        "districts": [
            {
                "zip": "600",
                "name": "西區",
                "latitude": 23.48170334,
                "longitude": 120.4706244
            },
            {
                "zip": "600",
                "name": "東區",
                "latitude": 23.48170334,
                "longitude": 120.4706244
            }
        ],
        "name": "嘉義市"
    },
    {
        "districts": [
            {
                "zip": "602",
                "name": "番路鄉",
                "latitude": 23.42765669,
                "longitude": 120.6075335
            },
            {
                "zip": "603",
                "name": "梅山鄉",
                "latitude": 23.55535465,
                "longitude": 120.6387459
            },
            {
                "zip": "604",
                "name": "竹崎鄉",
                "latitude": 23.50376527,
                "longitude": 120.5965771
            },
            {
                "zip": "605",
                "name": "阿里山鄉",
                "latitude": 23.44077619,
                "longitude": 120.7596173
            },
            {
                "zip": "606",
                "name": "中埔鄉",
                "latitude": 23.40408998,
                "longitude": 120.5365312
            },
            {
                "zip": "607",
                "name": "大埔鄉",
                "latitude": 23.28848426,
                "longitude": 120.5896466
            },
            {
                "zip": "608",
                "name": "水上鄉",
                "latitude": 23.42911287,
                "longitude": 120.4147357
            },
            {
                "zip": "611",
                "name": "鹿草鄉",
                "latitude": 23.40811736,
                "longitude": 120.3045468
            },
            {
                "zip": "612",
                "name": "太保市",
                "latitude": 23.4729191,
                "longitude": 120.3440009
            },
            {
                "zip": "613",
                "name": "朴子市",
                "latitude": 23.44610605,
                "longitude": 120.2538977
            },
            {
                "zip": "614",
                "name": "東石鄉",
                "latitude": 23.46866059,
                "longitude": 120.1738682
            },
            {
                "zip": "615",
                "name": "六腳鄉",
                "latitude": 23.51020984,
                "longitude": 120.2714728
            },
            {
                "zip": "616",
                "name": "新港鄉",
                "latitude": 23.54581295,
                "longitude": 120.3482873
            },
            {
                "zip": "621",
                "name": "民雄鄉",
                "latitude": 23.54255347,
                "longitude": 120.4442798
            },
            {
                "zip": "622",
                "name": "大林鎮",
                "latitude": 23.59890827,
                "longitude": 120.4807865
            },
            {
                "zip": "623",
                "name": "溪口鄉",
                "latitude": 23.59353089,
                "longitude": 120.4010282
            },
            {
                "zip": "624",
                "name": "義竹鄉",
                "latitude": 23.34575872,
                "longitude": 120.2239433
            },
            {
                "zip": "625",
                "name": "布袋鎮",
                "latitude": 23.37494276,
                "longitude": 120.1777498
            }
        ],
        "name": "嘉義縣"
    },
    {
        "districts": [
            {
                "zip": "630",
                "name": "斗南鎮",
                "latitude": 23.67066393,
                "longitude": 120.4826356
            },
            {
                "zip": "631",
                "name": "大埤鄉",
                "latitude": 23.6455971,
                "longitude": 120.4255592
            },
            {
                "zip": "632",
                "name": "虎尾鎮",
                "latitude": 23.71661545,
                "longitude": 120.4293061
            },
            {
                "zip": "633",
                "name": "土庫鎮",
                "latitude": 23.69110665,
                "longitude": 120.3647252
            },
            {
                "zip": "634",
                "name": "褒忠鄉",
                "latitude": 23.71613204,
                "longitude": 120.3116122
            },
            {
                "zip": "635",
                "name": "東勢鄉",
                "latitude": 23.69612324,
                "longitude": 120.2564173
            },
            {
                "zip": "636",
                "name": "台西鄉",
                "latitude": 23.71600815,
                "longitude": 120.2054952
            },
            {
                "zip": "637",
                "name": "崙背鄉",
                "latitude": 23.77849791,
                "longitude": 120.3339769
            },
            {
                "zip": "638",
                "name": "麥寮鄉",
                "latitude": 23.78817056,
                "longitude": 120.243533
            },
            {
                "zip": "640",
                "name": "斗六市",
                "latitude": 23.70651883,
                "longitude": 120.5600044
            },
            {
                "zip": "643",
                "name": "林內鄉",
                "latitude": 23.7557209,
                "longitude": 120.6155018
            },
            {
                "zip": "646",
                "name": "古坑鄉",
                "latitude": 23.62545469,
                "longitude": 120.6117351
            },
            {
                "zip": "647",
                "name": "莿桐鄉",
                "latitude": 23.76973894,
                "longitude": 120.5290419
            },
            {
                "zip": "648",
                "name": "西螺鎮",
                "latitude": 23.77942109,
                "longitude": 120.4580795
            },
            {
                "zip": "649",
                "name": "二崙鄉",
                "latitude": 23.7925521,
                "longitude": 120.3964598
            },
            {
                "zip": "651",
                "name": "北港鎮",
                "latitude": 23.59219528,
                "longitude": 120.2940164
            },
            {
                "zip": "652",
                "name": "水林鄉",
                "latitude": 23.56162849,
                "longitude": 120.2352734
            },
            {
                "zip": "653",
                "name": "口湖鄉",
                "latitude": 23.55365395,
                "longitude": 120.1413711
            },
            {
                "zip": "654",
                "name": "四湖鄉",
                "latitude": 23.64206875,
                "longitude": 120.2064699
            },
            {
                "zip": "655",
                "name": "元長鄉",
                "latitude": 23.64243095,
                "longitude": 120.3279617
            }
        ],
        "name": "雲林縣"
    },
    {
        "districts": [
            {
                "zip": "700",
                "name": "中西區",
                "latitude": 22.99594458,
                "longitude": 120.192874
            },
            {
                "zip": "701",
                "name": "東區",
                "latitude": 22.98178202,
                "longitude": 120.2281858
            },
            {
                "zip": "702",
                "name": "南區",
                "latitude": 22.95561863,
                "longitude": 120.1903743
            },
            {
                "zip": "704",
                "name": "北區",
                "latitude": 23.01012179,
                "longitude": 120.2068735
            },
            {
                "zip": "708",
                "name": "安平區",
                "latitude": 22.99008437,
                "longitude": 120.1649949
            },
            {
                "zip": "709",
                "name": "安南區",
                "latitude": 23.04869681,
                "longitude": 120.1526189
            },
            {
                "zip": "710",
                "name": "永康區",
                "latitude": 23.02729532,
                "longitude": 120.2542795
            },
            {
                "zip": "711",
                "name": "歸仁區",
                "latitude": 22.94679469,
                "longitude": 120.2930627
            },
            {
                "zip": "712",
                "name": "新化區",
                "latitude": 23.03394545,
                "longitude": 120.3357964
            },
            {
                "zip": "713",
                "name": "左鎮區",
                "latitude": 23.02604611,
                "longitude": 120.4123917
            },
            {
                "zip": "714",
                "name": "玉井區",
                "latitude": 23.11480926,
                "longitude": 120.4609622
            },
            {
                "zip": "715",
                "name": "楠西區",
                "latitude": 23.17885854,
                "longitude": 120.5170304
            },
            {
                "zip": "716",
                "name": "南化區",
                "latitude": 23.1151111,
                "longitude": 120.5441223
            },
            {
                "zip": "717",
                "name": "仁德區",
                "latitude": 22.94130931,
                "longitude": 120.2418788
            },
            {
                "zip": "718",
                "name": "關廟區",
                "latitude": 22.95577909,
                "longitude": 120.3342821
            },
            {
                "zip": "719",
                "name": "龍崎區",
                "latitude": 22.95482276,
                "longitude": 120.3869373
            },
            {
                "zip": "720",
                "name": "官田區",
                "latitude": 23.19098548,
                "longitude": 120.3479918
            },
            {
                "zip": "721",
                "name": "麻豆區",
                "latitude": 23.18248033,
                "longitude": 120.241308
            },
            {
                "zip": "722",
                "name": "佳里區",
                "latitude": 23.1669941,
                "longitude": 120.178593
            },
            {
                "zip": "723",
                "name": "西港區",
                "latitude": 23.12491893,
                "longitude": 120.2002309
            },
            {
                "zip": "724",
                "name": "七股區",
                "latitude": 23.12326578,
                "longitude": 120.1005854
            },
            {
                "zip": "725",
                "name": "將軍區",
                "latitude": 23.20834413,
                "longitude": 120.1276958
            },
            {
                "zip": "726",
                "name": "學甲區",
                "latitude": 23.25219805,
                "longitude": 120.1841865
            },
            {
                "zip": "727",
                "name": "北門區",
                "latitude": 23.2777708,
                "longitude": 120.1262357
            },
            {
                "zip": "730",
                "name": "新營區",
                "latitude": 23.30152488,
                "longitude": 120.2954067
            },
            {
                "zip": "731",
                "name": "後壁區",
                "latitude": 23.36201478,
                "longitude": 120.3485081
            },
            {
                "zip": "732",
                "name": "白河區",
                "latitude": 23.35132068,
                "longitude": 120.4578565
            },
            {
                "zip": "733",
                "name": "東山區",
                "latitude": 23.2783187,
                "longitude": 120.4441211
            },
            {
                "zip": "734",
                "name": "六甲區",
                "latitude": 23.2272672,
                "longitude": 120.3800259
            },
            {
                "zip": "735",
                "name": "下營區",
                "latitude": 23.23103978,
                "longitude": 120.26484
            },
            {
                "zip": "736",
                "name": "柳營區",
                "latitude": 23.26887001,
                "longitude": 120.3549205
            },
            {
                "zip": "737",
                "name": "鹽水區",
                "latitude": 23.29798622,
                "longitude": 120.2482977
            },
            {
                "zip": "741",
                "name": "善化區",
                "latitude": 23.14031072,
                "longitude": 120.2988274
            },
            {
                "zip": "744",
                "name": "新市區",
                "latitude": 23.08319496,
                "longitude": 120.2923941
            },
            {
                "zip": "742",
                "name": "大內區",
                "latitude": 23.14482152,
                "longitude": 120.3988147
            },
            {
                "zip": "743",
                "name": "山上區",
                "latitude": 23.09689329,
                "longitude": 120.370977
            },
            {
                "zip": "745",
                "name": "安定區",
                "latitude": 23.09974927,
                "longitude": 120.2296235
            }
        ],
        "name": "台南市"
    },
    {
        "districts": [
            {
                "zip": "800",
                "name": "新興區",
                "latitude": 22.62992906,
                "longitude": 120.3067337
            },
            {
                "zip": "801",
                "name": "前金區",
                "latitude": 22.6269905,
                "longitude": 120.2944217
            },
            {
                "zip": "802",
                "name": "苓雅區",
                "latitude": 22.62359448,
                "longitude": 120.3209103
            },
            {
                "zip": "803",
                "name": "鹽埕區",
                "latitude": 22.62424585,
                "longitude": 120.2842331
            },
            {
                "zip": "804",
                "name": "鼓山區",
                "latitude": 22.65019525,
                "longitude": 120.274163
            },
            {
                "zip": "805",
                "name": "旗津區",
                "latitude": 22.58565583,
                "longitude": 120.2891539
            },
            {
                "zip": "806",
                "name": "前鎮區",
                "latitude": 22.59269724,
                "longitude": 120.3146749
            },
            {
                "zip": "807",
                "name": "三民區",
                "latitude": 22.64989883,
                "longitude": 120.3179187
            },
            {
                "zip": "811",
                "name": "楠梓區",
                "latitude": 22.72109961,
                "longitude": 120.300758
            },
            {
                "zip": "812",
                "name": "小港區",
                "latitude": 22.55140207,
                "longitude": 120.3592605
            },
            {
                "zip": "813",
                "name": "左營區",
                "latitude": 22.68395699,
                "longitude": 120.2951588
            },
            {
                "zip": "814",
                "name": "仁武區",
                "latitude": 22.70120782,
                "longitude": 120.3605265
            },
            {
                "zip": "815",
                "name": "大社區",
                "latitude": 22.73983479,
                "longitude": 120.3707994
            },
            {
                "zip": "817",
                "name": "東沙群島",
                "latitude": 20.705842,
                "longitude": 116.906984
            },
            {
                "zip": "819",
                "name": "南沙群島",
                "latitude": 10.724232,
                "longitude": 115.812406
            },
            {
                "zip": "820",
                "name": "岡山區",
                "latitude": 22.80505886,
                "longitude": 120.2978906
            },
            {
                "zip": "821",
                "name": "路竹區",
                "latitude": 22.85724171,
                "longitude": 120.2659871
            },
            {
                "zip": "822",
                "name": "阿蓮區",
                "latitude": 22.87022883,
                "longitude": 120.3210967
            },
            {
                "zip": "823",
                "name": "田寮區",
                "latitude": 22.86394307,
                "longitude": 120.3959842
            },
            {
                "zip": "824",
                "name": "燕巢區",
                "latitude": 22.78769626,
                "longitude": 120.370799
            },
            {
                "zip": "825",
                "name": "橋頭區",
                "latitude": 22.75252398,
                "longitude": 120.3006534
            },
            {
                "zip": "826",
                "name": "梓官區",
                "latitude": 22.748209,
                "longitude": 120.2593989
            },
            {
                "zip": "827",
                "name": "彌陀區",
                "latitude": 22.77944528,
                "longitude": 120.2394571
            },
            {
                "zip": "828",
                "name": "永安區",
                "latitude": 22.82224585,
                "longitude": 120.228051
            },
            {
                "zip": "829",
                "name": "湖內區",
                "latitude": 22.89324952,
                "longitude": 120.2259375
            },
            {
                "zip": "830",
                "name": "鳳山區",
                "latitude": 22.61379251,
                "longitude": 120.3554359
            },
            {
                "zip": "831",
                "name": "大寮區",
                "latitude": 22.59283576,
                "longitude": 120.4111468
            },
            {
                "zip": "832",
                "name": "林園區",
                "latitude": 22.50813743,
                "longitude": 120.399052
            },
            {
                "zip": "833",
                "name": "鳥松區",
                "latitude": 22.66249302,
                "longitude": 120.3727783
            },
            {
                "zip": "840",
                "name": "大樹區",
                "latitude": 22.71100364,
                "longitude": 120.425407
            },
            {
                "zip": "842",
                "name": "旗山區",
                "latitude": 22.86497033,
                "longitude": 120.4754554
            },
            {
                "zip": "843",
                "name": "美濃區",
                "latitude": 22.90005529,
                "longitude": 120.5634635
            },
            {
                "zip": "844",
                "name": "六龜區",
                "latitude": 23.01195426,
                "longitude": 120.6585635
            },
            {
                "zip": "845",
                "name": "內門區",
                "latitude": 22.95668817,
                "longitude": 120.4719272
            },
            {
                "zip": "846",
                "name": "杉林區",
                "latitude": 22.99694681,
                "longitude": 120.5621971
            },
            {
                "zip": "847",
                "name": "甲仙區",
                "latitude": 23.11654995,
                "longitude": 120.6232895
            },
            {
                "zip": "848",
                "name": "桃源區",
                "latitude": 23.2249459,
                "longitude": 120.8523383
            },
            {
                "zip": "849",
                "name": "那瑪夏區",
                "latitude": 23.275008,
                "longitude": 120.741944
            },
            {
                "zip": "851",
                "name": "茂林區",
                "latitude": 22.91993256,
                "longitude": 120.752384
            },
            {
                "zip": "852",
                "name": "茄萣區",
                "latitude": 22.88241399,
                "longitude": 120.1980519
            }
        ],
        "name": "高雄市"
    },
    {
        "districts": [
            {
                "zip": "817",
                "name": "東沙群島",
                "latitude": 20.705842,
                "longitude": 116.906984
            },
            {
                "zip": "819",
                "name": "南沙群島",
                "latitude": 10.724232,
                "longitude": 115.812406
            }
        ],
        "name": "南海島"
    },
    {
        "districts": [
            {
                "zip": "880",
                "name": "馬公市",
                "latitude": 23.55534,
                "longitude": 119.59234
            },
            {
                "zip": "881",
                "name": "西嶼鄉",
                "latitude": 23.59975,
                "longitude": 119.50783
            },
            {
                "zip": "882",
                "name": "望安鄉",
                "latitude": 23.36904,
                "longitude": 119.50406
            },
            {
                "zip": "883",
                "name": "七美鄉",
                "latitude": 23.20108,
                "longitude": 119.43393
            },
            {
                "zip": "884",
                "name": "白沙鄉",
                "latitude": 23.64178,
                "longitude": 119.59251
            },
            {
                "zip": "885",
                "name": "湖西鄉",
                "latitude": 23.57364,
                "longitude": 119.64462
            }
        ],
        "name": "澎湖縣"
    },
    {
        "districts": [
            {
                "zip": "890",
                "name": "金沙鎮",
                "latitude": 24.45865,
                "longitude": 118.40841
            },
            {
                "zip": "891",
                "name": "金湖鎮",
                "latitude": 24.41496,
                "longitude": 118.40373
            },
            {
                "zip": "892",
                "name": "金寧鄉",
                "latitude": 24.42482,
                "longitude": 118.31705
            },
            {
                "zip": "893",
                "name": "金城鎮",
                "latitude": 24.38402,
                "longitude": 118.30128
            },
            {
                "zip": "894",
                "name": "烈嶼鄉",
                "latitude": 24.40166,
                "longitude": 118.22789
            },
            {
                "zip": "896",
                "name": "烏坵鄉",
                "latitude": 24.992338,
                "longitude": 119.452738
            }
        ],
        "name": "金門縣"
    },
    {
        "districts": [
            {
                "zip": "900",
                "name": "屏東市",
                "latitude": 22.6647375,
                "longitude": 120.4799948
            },
            {
                "zip": "901",
                "name": "三地門鄉",
                "latitude": 22.79786847,
                "longitude": 120.6865219
            },
            {
                "zip": "902",
                "name": "霧臺鄉",
                "latitude": 22.75990478,
                "longitude": 120.8008099
            },
            {
                "zip": "903",
                "name": "瑪家鄉",
                "latitude": 22.67107764,
                "longitude": 120.6799239
            },
            {
                "zip": "904",
                "name": "九如鄉",
                "latitude": 22.7316677,
                "longitude": 120.4845044
            },
            {
                "zip": "905",
                "name": "里港鄉",
                "latitude": 22.79854831,
                "longitude": 120.5061276
            },
            {
                "zip": "906",
                "name": "高樹鄉",
                "latitude": 22.80992022,
                "longitude": 120.6017678
            },
            {
                "zip": "907",
                "name": "鹽埔鄉",
                "latitude": 22.74253636,
                "longitude": 120.5693941
            },
            {
                "zip": "908",
                "name": "長治鄉",
                "latitude": 22.69454952,
                "longitude": 120.555979
            },
            {
                "zip": "909",
                "name": "麟洛鄉",
                "latitude": 22.64876367,
                "longitude": 120.5299693
            },
            {
                "zip": "911",
                "name": "竹田鄉",
                "latitude": 22.58855636,
                "longitude": 120.5266379
            },
            {
                "zip": "912",
                "name": "內埔鄉",
                "latitude": 22.65116933,
                "longitude": 120.5888222
            },
            {
                "zip": "913",
                "name": "萬丹鄉",
                "latitude": 22.58849547,
                "longitude": 120.4766188
            },
            {
                "zip": "920",
                "name": "潮州鎮",
                "latitude": 22.53642947,
                "longitude": 120.5568063
            },
            {
                "zip": "921",
                "name": "泰武鄉",
                "latitude": 22.60408477,
                "longitude": 120.6917929
            },
            {
                "zip": "922",
                "name": "來義鄉",
                "latitude": 22.50157206,
                "longitude": 120.6857232
            },
            {
                "zip": "923",
                "name": "萬巒鄉",
                "latitude": 22.58233459,
                "longitude": 120.601817
            },
            {
                "zip": "924",
                "name": "崁頂鄉",
                "latitude": 22.51528151,
                "longitude": 120.5006598
            },
            {
                "zip": "925",
                "name": "新埤鄉",
                "latitude": 22.48676279,
                "longitude": 120.5846257
            },
            {
                "zip": "926",
                "name": "南州鄉",
                "latitude": 22.47980704,
                "longitude": 120.5180561
            },
            {
                "zip": "927",
                "name": "林邊鄉",
                "latitude": 22.44142101,
                "longitude": 120.5125095
            },
            {
                "zip": "928",
                "name": "東港鎮",
                "latitude": 22.46265635,
                "longitude": 120.4751333
            },
            {
                "zip": "929",
                "name": "琉球鄉",
                "latitude": 22.34000278,
                "longitude": 120.3710466
            },
            {
                "zip": "931",
                "name": "佳冬鄉",
                "latitude": 22.42980624,
                "longitude": 120.5476124
            },
            {
                "zip": "932",
                "name": "新園鄉",
                "latitude": 22.5171903,
                "longitude": 120.4501429
            },
            {
                "zip": "940",
                "name": "枋寮鄉",
                "latitude": 22.40334199,
                "longitude": 120.5975845
            },
            {
                "zip": "941",
                "name": "枋山鄉",
                "latitude": 22.27086962,
                "longitude": 120.6567673
            },
            {
                "zip": "942",
                "name": "春日鄉",
                "latitude": 22.40399754,
                "longitude": 120.6975799
            },
            {
                "zip": "943",
                "name": "獅子鄉",
                "latitude": 22.26084921,
                "longitude": 120.7356454
            },
            {
                "zip": "944",
                "name": "車城鄉",
                "latitude": 22.07915617,
                "longitude": 120.7432633
            },
            {
                "zip": "945",
                "name": "牡丹鄉",
                "latitude": 22.15552859,
                "longitude": 120.8173609
            },
            {
                "zip": "946",
                "name": "恆春鎮",
                "latitude": 21.98531645,
                "longitude": 120.7632537
            },
            {
                "zip": "947",
                "name": "滿州鄉",
                "latitude": 22.04930015,
                "longitude": 120.8435675
            }
        ],
        "name": "屏東縣"
    },
    {
        "districts": [
            {
                "zip": "950",
                "name": "台東市",
                "latitude": 22.75165721,
                "longitude": 121.1103647
            },
            {
                "zip": "951",
                "name": "綠島鄉",
                "latitude": 22.66017537,
                "longitude": 121.4901951
            },
            {
                "zip": "952",
                "name": "蘭嶼鄉",
                "latitude": 22.04616835,
                "longitude": 121.5508328
            },
            {
                "zip": "953",
                "name": "延平鄉",
                "latitude": 22.90343174,
                "longitude": 120.9831902
            },
            {
                "zip": "954",
                "name": "卑南鄉",
                "latitude": 22.76494453,
                "longitude": 121.0015521
            },
            {
                "zip": "955",
                "name": "鹿野鄉",
                "latitude": 22.95125666,
                "longitude": 121.1560376
            },
            {
                "zip": "956",
                "name": "關山鎮",
                "latitude": 23.03780684,
                "longitude": 121.1766197
            },
            {
                "zip": "957",
                "name": "海端鄉",
                "latitude": 23.11478528,
                "longitude": 121.0175672
            },
            {
                "zip": "958",
                "name": "池上鄉",
                "latitude": 23.09248714,
                "longitude": 121.2184501
            },
            {
                "zip": "959",
                "name": "東河鄉",
                "latitude": 22.98006921,
                "longitude": 121.2517917
            },
            {
                "zip": "961",
                "name": "成功鎮",
                "latitude": 23.12663716,
                "longitude": 121.3537983
            },
            {
                "zip": "962",
                "name": "長濱鄉",
                "latitude": 23.33476899,
                "longitude": 121.4261725
            },
            {
                "zip": "963",
                "name": "太麻里鄉",
                "latitude": 22.59098082,
                "longitude": 120.9797643
            },
            {
                "zip": "964",
                "name": "金峰鄉",
                "latitude": 22.58161687,
                "longitude": 120.8570384
            },
            {
                "zip": "965",
                "name": "大武鄉",
                "latitude": 22.38359522,
                "longitude": 120.8991703
            },
            {
                "zip": "966",
                "name": "達仁鄉",
                "latitude": 22.38430718,
                "longitude": 120.8355239
            }
        ],
        "name": "台東縣"
    },
    {
        "districts": [
            {
                "zip": "970",
                "name": "花蓮市",
                "latitude": 23.99700271,
                "longitude": 121.6071463
            },
            {
                "zip": "971",
                "name": "新城鄉",
                "latitude": 24.05579952,
                "longitude": 121.6137969
            },
            {
                "zip": "972",
                "name": "秀林鄉",
                "latitude": 24.12374414,
                "longitude": 121.4807194
            },
            {
                "zip": "973",
                "name": "吉安鄉",
                "latitude": 23.95546585,
                "longitude": 121.5646738
            },
            {
                "zip": "974",
                "name": "壽豐鄉",
                "latitude": 23.84459714,
                "longitude": 121.5341569
            },
            {
                "zip": "975",
                "name": "鳳林鎮",
                "latitude": 23.74324462,
                "longitude": 121.4698848
            },
            {
                "zip": "976",
                "name": "光復鄉",
                "latitude": 23.64658742,
                "longitude": 121.4351231
            },
            {
                "zip": "977",
                "name": "豐濱鄉",
                "latitude": 23.58519428,
                "longitude": 121.4942331
            },
            {
                "zip": "978",
                "name": "瑞穗鄉",
                "latitude": 23.5156124,
                "longitude": 121.4073472
            },
            {
                "zip": "979",
                "name": "萬榮鄉",
                "latitude": 23.72772629,
                "longitude": 121.3189531
            },
            {
                "zip": "981",
                "name": "玉里鎮",
                "latitude": 23.37143588,
                "longitude": 121.3604476
            },
            {
                "zip": "982",
                "name": "卓溪鄉",
                "latitude": 23.39062875,
                "longitude": 121.1804222
            },
            {
                "zip": "983",
                "name": "富里鄉",
                "latitude": 23.19672092,
                "longitude": 121.2980494
            }
        ],
        "name": "花蓮縣"
    }
]